UTC Date = 2024-08-11
$GPRMC,131654.00,A,0840.83984,N,02618.45645,W,470.854,190.62,110824,,,A*79
$GPGGA,131654.00,0840.83984,N,02618.45645,W,1,12,0.76,12971.3,M,7.9,M,,*70
$GPRMC,131655.00,A,0840.71089,N,02618.48077,W,470.766,190.62,110824,,,A*75
$GPGGA,131655.00,0840.71089,N,02618.48077,W,1,12,0.76,12971.4,M,7.9,M,,*75
$GPRMC,131656.00,A,0840.58197,N,02618.50510,W,470.637,190.63,110824,,,A*7A
$GPGGA,131656.00,0840.58197,N,02618.50510,W,1,12,0.76,12971.7,M,7.9,M,,*7D
$GPRMC,131657.00,A,0840.45313,N,02618.52945,W,470.369,190.64,110824,,,A*7E
$GPGGA,131657.00,0840.45313,N,02618.52945,W,1,12,0.76,12971.8,M,7.9,M,,*7F
$GPRMC,131658.00,A,0840.32432,N,02618.55378,W,470.404,190.62,110824,,,A*7C
$GPGGA,131658.00,0840.32432,N,02618.55378,W,1,12,0.76,12971.9,M,7.9,M,,*76
$GPRMC,131659.00,A,0840.19553,N,02618.57807,W,470.188,190.60,110824,,,A*70
$GPGGA,131659.00,0840.19553,N,02618.57807,W,1,12,0.76,12972.1,M,7.9,M,,*72
$GPRMC,131700.00,A,0840.06678,N,02618.60232,W,470.042,190.61,110824,,,A*77
$GPGGA,131700.00,0840.06678,N,02618.60232,W,1,12,0.76,12972.2,M,7.9,M,,*70
$GPRMC,131701.00,A,0839.93804,N,02618.62658,W,470.037,190.63,110824,,,A*7B
$GPGGA,131701.00,0839.93804,N,02618.62658,W,1,12,0.76,12972.3,M,7.9,M,,*7D
$GPRMC,131702.00,A,0839.80933,N,02618.65084,W,469.808,190.62,110824,,,A*72
$GPGGA,131702.00,0839.80933,N,02618.65084,W,1,12,0.76,12972.3,M,7.9,M,,*79
$GPRMC,131703.00,A,0839.68068,N,02618.67513,W,469.793,190.65,110824,,,A*71
$GPGGA,131703.00,0839.68068,N,02618.67513,W,1,12,0.76,12972.1,M,7.9,M,,*72
$GPRMC,131704.00,A,0839.55203,N,02618.69943,W,469.628,190.66,110824,,,A*72
$GPGGA,131704.00,0839.55203,N,02618.69943,W,1,12,0.76,12972.0,M,7.9,M,,*72
$GPRMC,131705.00,A,0839.42344,N,02618.72373,W,469.556,190.62,110824,,,A*7A
$GPGGA,131705.00,0839.42344,N,02618.72373,W,1,12,0.76,12971.7,M,7.9,M,,*70
$GPRMC,131706.00,A,0839.29487,N,02618.74799,W,469.326,190.65,110824,,,A*7C
$GPGGA,131706.00,0839.29487,N,02618.74799,W,1,12,0.76,12971.5,M,7.9,M,,*72
$GPRMC,131707.00,A,0839.16637,N,02618.77226,W,469.169,190.64,110824,,,A*72
$GPGGA,131707.00,0839.16637,N,02618.77226,W,1,12,0.76,12971.3,M,7.9,M,,*72
$GPRMC,131708.00,A,0839.03789,N,02618.79650,W,469.043,190.64,110824,,,A*7F
$GPGGA,131708.00,0839.03789,N,02618.79650,W,1,12,0.76,12971.0,M,7.9,M,,*75
$GPRMC,131709.00,A,0838.90945,N,02618.82073,W,468.887,190.64,110824,,,A*79
$GPGGA,131709.00,0838.90945,N,02618.82073,W,1,12,0.76,12970.7,M,7.9,M,,*74
$GPRMC,131710.00,A,0838.78105,N,02618.84493,W,468.623,190.64,110824,,,A*77
$GPGGA,131710.00,0838.78105,N,02618.84493,W,1,12,0.76,12970.6,M,7.9,M,,*7B
$GPRMC,131711.00,A,0838.65268,N,02618.86919,W,468.634,190.67,110824,,,A*7A
$GPGGA,131711.00,0838.65268,N,02618.86919,W,1,12,0.76,12970.4,M,7.9,M,,*71
$GPRMC,131712.00,A,0838.52435,N,02618.89344,W,468.404,190.67,110824,,,A*7F
$GPGGA,131712.00,0838.52435,N,02618.89344,W,1,12,0.76,12970.1,M,7.9,M,,*70
$GPRMC,131713.00,A,0838.39610,N,02618.91771,W,468.180,190.69,110824,,,A*7A
$GPGGA,131713.00,0838.39610,N,02618.91771,W,1,12,0.76,12969.9,M,7.9,M,,*72
$GPRMC,131714.00,A,0838.26791,N,02618.94194,W,468.018,190.67,110824,,,A*7D
$GPGGA,131714.00,0838.26791,N,02618.94194,W,1,12,0.76,12969.8,M,7.9,M,,*7A
$GPRMC,131715.00,A,0838.13978,N,02618.96614,W,467.635,190.65,110824,,,A*7A
$GPGGA,131715.00,0838.13978,N,02618.96614,W,1,12,0.76,12969.8,M,7.9,M,,*79
$GPRMC,131716.00,A,0838.01171,N,02618.99031,W,467.433,190.67,110824,,,A*73
$GPGGA,131716.00,0838.01171,N,02618.99031,W,1,12,0.76,12969.9,M,7.9,M,,*77
$GPRMC,131717.00,A,0837.88373,N,02619.01449,W,467.250,190.66,110824,,,A*75
$GPGGA,131717.00,0837.88373,N,02619.01449,W,1,12,0.76,12970.0,M,7.9,M,,*72
$GPRMC,131718.00,A,0837.75579,N,02619.03863,W,467.043,190.63,110824,,,A*77
$GPGGA,131718.00,0837.75579,N,02619.03863,W,1,12,0.76,12970.2,M,7.9,M,,*77
$GPRMC,131719.00,A,0837.62790,N,02619.06272,W,466.822,190.63,110824,,,A*74
$GPGGA,131719.00,0837.62790,N,02619.06272,W,1,12,0.76,12970.5,M,7.9,M,,*7D
$GPRMC,131720.00,A,0837.50007,N,02619.08676,W,466.620,190.60,110824,,,A*77
$GPGGA,131720.00,0837.50007,N,02619.08676,W,1,12,0.76,12970.5,M,7.9,M,,*71
$GPRMC,131721.00,A,0837.37229,N,02619.11077,W,466.287,190.62,110824,,,A*7D
$GPGGA,131721.00,0837.37229,N,02619.11077,W,1,12,0.76,12970.6,M,7.9,M,,*73
$GPRMC,131722.00,A,0837.24456,N,02619.13482,W,466.255,190.64,110824,,,A*77
$GPGGA,131722.00,0837.24456,N,02619.13482,W,1,12,0.76,12970.2,M,7.9,M,,*74
$GPRMC,131723.00,A,0837.11687,N,02619.15887,W,466.000,190.65,110824,,,A*72
$GPGGA,131723.00,0837.11687,N,02619.15887,W,1,12,0.76,12969.9,M,7.9,M,,*71
$GPRMC,131724.00,A,0836.98928,N,02619.18294,W,465.724,190.65,110824,,,A*78
$GPGGA,131724.00,0836.98928,N,02619.18294,W,1,12,0.76,12969.3,M,7.9,M,,*73
$GPRMC,131725.00,A,0836.86177,N,02619.20701,W,465.370,190.64,110824,,,A*72
$GPGGA,131725.00,0836.86177,N,02619.20701,W,1,12,0.76,12968.8,M,7.9,M,,*77
$GPRMC,131726.00,A,0836.73431,N,02619.23104,W,465.287,190.63,110824,,,A*72
$GPGGA,131726.00,0836.73431,N,02619.23104,W,1,12,0.76,12968.3,M,7.9,M,,*72
$GPRMC,131727.00,A,0836.60691,N,02619.25505,W,465.078,190.63,110824,,,A*78
$GPGGA,131727.00,0836.60691,N,02619.25505,W,1,12,0.76,12968.0,M,7.9,M,,*79
$GPRMC,131728.00,A,0836.47956,N,02619.27908,W,464.937,190.65,110824,,,A*70
$GPGGA,131728.00,0836.47956,N,02619.27908,W,1,12,0.76,12968.0,M,7.9,M,,*74
$GPRMC,131729.00,A,0836.35229,N,02619.30310,W,464.526,190.65,110824,,,A*7E
$GPGGA,131729.00,0836.35229,N,02619.30310,W,1,12,0.76,12968.2,M,7.9,M,,*74
$GPRMC,131730.00,A,0836.22511,N,02619.32712,W,464.261,190.66,110824,,,A*7F
$GPGGA,131730.00,0836.22511,N,02619.32712,W,1,12,0.76,12968.6,M,7.9,M,,*76
$GPRMC,131731.00,A,0836.09801,N,02619.35113,W,463.996,190.64,110824,,,A*7D
$GPGGA,131731.00,0836.09801,N,02619.35113,W,1,12,0.76,12968.9,M,7.9,M,,*7D
$GPRMC,131732.00,A,0835.97097,N,02619.37509,W,463.763,190.63,110824,,,A*73
$GPGGA,131732.00,0835.97097,N,02619.37509,W,1,12,0.76,12969.3,M,7.9,M,,*7B
$GPRMC,131733.00,A,0835.84396,N,02619.39904,W,463.574,190.64,110824,,,A*7E
$GPGGA,131733.00,0835.84396,N,02619.39904,W,1,12,0.76,12969.7,M,7.9,M,,*71
$GPRMC,131734.00,A,0835.71699,N,02619.42295,W,463.366,190.62,110824,,,A*75
$GPGGA,131734.00,0835.71699,N,02619.42295,W,1,12,0.76,12970.0,M,7.9,M,,*76
$GPRMC,131735.00,A,0835.59009,N,02619.44682,W,463.204,190.61,110824,,,A*73
$GPGGA,131735.00,0835.59009,N,02619.44682,W,1,12,0.76,12970.1,M,7.9,M,,*77
$GPRMC,131736.00,A,0835.46321,N,02619.47066,W,463.020,190.60,110824,,,A*7D
$GPGGA,131736.00,0835.46321,N,02619.47066,W,1,12,0.76,12970.4,M,7.8,M,,*78
$GPRMC,131737.00,A,0835.33637,N,02619.49450,W,462.885,190.61,110824,,,A*74
$GPGGA,131737.00,0835.33637,N,02619.49450,W,1,12,0.76,12970.5,M,7.8,M,,*77
$GPRMC,131738.00,A,0835.20959,N,02619.51836,W,462.846,190.64,110824,,,A*71
$GPGGA,131738.00,0835.20959,N,02619.51836,W,1,12,0.76,12970.5,M,7.8,M,,*78
$GPRMC,131739.00,A,0835.08282,N,02619.54230,W,462.588,190.67,110824,,,A*72
$GPGGA,131739.00,0835.08282,N,02619.54230,W,1,12,0.76,12970.7,M,7.8,M,,*75
$GPRMC,131740.00,A,0834.95614,N,02619.56630,W,462.622,190.67,110824,,,A*77
$GPGGA,131740.00,0834.95614,N,02619.56630,W,1,12,0.76,12970.4,M,7.8,M,,*70
$GPRMC,131741.00,A,0834.82947,N,02619.59033,W,462.456,190.68,110824,,,A*7D
$GPGGA,131741.00,0834.82947,N,02619.59033,W,1,12,0.76,12970.2,M,7.8,M,,*72
$GPRMC,131742.00,A,0834.70286,N,02619.61433,W,462.346,190.67,110824,,,A*73
$GPGGA,131742.00,0834.70286,N,02619.61433,W,1,12,0.76,12969.8,M,7.8,M,,*77
$GPRMC,131743.00,A,0834.57628,N,02619.63829,W,462.371,190.67,110824,,,A*76
$GPGGA,131743.00,0834.57628,N,02619.63829,W,1,12,0.76,12969.3,M,7.8,M,,*7D
$GPRMC,131744.00,A,0834.44969,N,02619.66223,W,462.253,190.63,110824,,,A*79
$GPGGA,131744.00,0834.44969,N,02619.66223,W,1,12,0.76,12968.9,M,7.8,M,,*7C
$GPRMC,131745.00,A,0834.32329,N,02619.68616,W,462.118,190.64,110824,,,A*70
$GPGGA,131745.00,0834.32329,N,02619.68616,W,1,12,0.76,12968.6,M,7.8,M,,*71
$GPRMC,131746.00,A,0834.19679,N,02619.71014,W,462.089,190.64,110824,,,A*7F
$GPGGA,131746.00,0834.19679,N,02619.71014,W,1,12,0.76,12968.3,M,7.8,M,,*72
$GPRMC,131747.00,A,0834.07031,N,02619.73407,W,461.905,190.64,110824,,,A*71
$GPGGA,131747.00,0834.07031,N,02619.73407,W,1,12,0.76,12968.0,M,7.8,M,,*71
$GPRMC,131748.00,A,0833.94387,N,02619.75798,W,461.744,190.65,110824,,,A*74
$GPGGA,131748.00,0833.94387,N,02619.75798,W,1,12,0.76,12967.7,M,7.8,M,,*76
$GPRMC,131749.00,A,0833.81744,N,02619.78185,W,461.691,190.63,110824,,,A*72
$GPGGA,131749.00,0833.81744,N,02619.78185,W,1,12,0.76,12967.5,M,7.8,M,,*7D
$GPRMC,131750.00,A,0833.69103,N,02619.80568,W,461.596,190.63,110824,,,A*7D
$GPGGA,131750.00,0833.69103,N,02619.80568,W,1,12,0.76,12967.2,M,7.8,M,,*71
$GPRMC,131751.00,A,0833.56465,N,02619.82951,W,461.543,190.63,110824,,,A*79
$GPGGA,131751.00,0833.56465,N,02619.82951,W,1,12,0.76,12967.0,M,7.8,M,,*7F
$GPRMC,131752.00,A,0833.43828,N,02619.85331,W,461.403,190.62,110824,,,A*74
$GPGGA,131752.00,0833.43828,N,02619.85331,W,1,12,0.76,12966.8,M,7.8,M,,*7F
$GPRMC,131753.00,A,0833.31193,N,02619.87705,W,461.304,190.58,110824,,,A*71
$GPGGA,131753.00,0833.31193,N,02619.87705,W,1,12,0.76,12966.9,M,7.8,M,,*72
$GPRMC,131754.00,A,0833.18559,N,02619.90077,W,461.221,190.59,110824,,,A*7C
$GPGGA,131754.00,0833.18559,N,02619.90077,W,1,12,0.76,12967.0,M,7.8,M,,*70
$GPRMC,131755.00,A,0833.05927,N,02619.92450,W,461.149,190.61,110824,,,A*71
$GPGGA,131755.00,0833.05927,N,02619.92450,W,1,12,0.76,12967.3,M,7.8,M,,*78
$GPRMC,131756.00,A,0832.93300,N,02619.94822,W,461.041,190.59,110824,,,A*7E
$GPGGA,131756.00,0832.93300,N,02619.94822,W,1,12,0.76,12967.3,M,7.8,M,,*75
$GPRMC,131757.00,A,0832.80673,N,02619.97191,W,461.022,190.59,110824,,,A*7B
$GPGGA,131757.00,0832.80673,N,02619.97191,W,1,12,0.76,12967.5,M,7.8,M,,*73
$GPRMC,131758.00,A,0832.68045,N,02619.99558,W,460.924,190.58,110824,,,A*71
$GPGGA,131758.00,0832.68045,N,02619.99558,W,1,12,0.76,12967.8,M,7.8,M,,*7B
$GPRMC,131759.00,A,0832.55417,N,02620.01925,W,461.035,190.58,110824,,,A*78
$GPGGA,131759.00,0832.55417,N,02620.01925,W,1,12,0.76,12967.9,M,7.8,M,,*7B
$GPRMC,131800.00,A,0832.42790,N,02620.04297,W,460.989,190.61,110824,,,A*73
$GPGGA,131800.00,0832.42790,N,02620.04297,W,1,12,0.76,12968.1,M,7.8,M,,*72
$GPRMC,131801.00,A,0832.30168,N,02620.06676,W,460.870,190.60,110824,,,A*79
$GPGGA,131801.00,0832.30168,N,02620.06676,W,1,12,0.76,12968.1,M,7.8,M,,*7E
$GPRMC,131802.00,A,0832.17546,N,02620.09052,W,460.902,190.61,110824,,,A*7D
$GPGGA,131802.00,0832.17546,N,02620.09052,W,1,12,0.76,12968.2,M,7.8,M,,*7C
$GPRMC,131803.00,A,0832.04925,N,02620.11425,W,460.752,190.57,110824,,,A*74
$GPGGA,131803.00,0832.04925,N,02620.11425,W,1,12,0.76,12968.3,M,7.8,M,,*7A
$GPRMC,131804.00,A,0831.92303,N,02620.13789,W,460.741,190.55,110824,,,A*76
$GPGGA,131804.00,0831.92303,N,02620.13789,W,1,12,0.76,12968.3,M,7.8,M,,*78
$GPRMC,131805.00,A,0831.79682,N,02620.16156,W,460.652,190.56,110824,,,A*7F
$GPGGA,131805.00,0831.79682,N,02620.16156,W,1,12,0.76,12968.2,M,7.8,M,,*70
$GPRMC,131806.00,A,0831.67064,N,02620.18524,W,460.469,190.58,110824,,,A*76
$GPGGA,131806.00,0831.67064,N,02620.18524,W,1,12,0.76,12968.0,M,7.8,M,,*7F
$GPRMC,131807.00,A,0831.54444,N,02620.20895,W,460.718,190.58,110824,,,A*78
$GPGGA,131807.00,0831.54444,N,02620.20895,W,1,12,0.76,12967.7,M,7.8,M,,*7C
$GPRMC,131808.00,A,0831.41823,N,02620.23262,W,460.679,190.54,110824,,,A*75
$GPGGA,131808.00,0831.41823,N,02620.23262,W,1,12,0.76,12967.4,M,7.8,M,,*78
$GPRMC,131809.00,A,0831.29203,N,02620.25627,W,460.654,190.53,110824,,,A*79
$GPGGA,131809.00,0831.29203,N,02620.25627,W,1,12,0.76,12967.2,M,7.8,M,,*7A
$GPRMC,131810.00,A,0831.16581,N,02620.27987,W,460.859,190.50,110824,,,A*77
$GPGGA,131810.00,0831.16581,N,02620.27987,W,1,12,0.76,12966.9,M,7.8,M,,*7E
$GPRMC,131811.00,A,0831.03954,N,02620.30346,W,460.959,190.51,110824,,,A*77
$GPGGA,131811.00,0831.03954,N,02620.30346,W,1,12,0.76,12966.9,M,7.8,M,,*7E
$GPRMC,131812.00,A,0830.91329,N,02620.32704,W,460.834,190.49,110824,,,A*7D
$GPGGA,131812.00,0830.91329,N,02620.32704,W,1,12,0.76,12966.9,M,7.8,M,,*77
$GPRMC,131813.00,A,0830.78701,N,02620.35061,W,461.005,190.50,110824,,,A*75
$GPGGA,131813.00,0830.78701,N,02620.35061,W,1,12,0.76,12966.9,M,7.8,M,,*7C
$GPRMC,131814.00,A,0830.66069,N,02620.37416,W,461.123,190.52,110824,,,A*75
$GPGGA,131814.00,0830.66069,N,02620.37416,W,1,12,0.76,12966.8,M,7.8,M,,*7A
$GPRMC,131815.00,A,0830.53434,N,02620.39775,W,461.088,190.52,110824,,,A*76
$GPGGA,131815.00,0830.53434,N,02620.39775,W,1,12,0.76,12966.8,M,7.8,M,,*79
$GPRMC,131816.00,A,0830.40801,N,02620.42131,W,461.141,190.52,110824,,,A*73
$GPGGA,131816.00,0830.40801,N,02620.42131,W,1,12,0.76,12966.9,M,7.8,M,,*79
$GPRMC,131817.00,A,0830.28167,N,02620.44485,W,461.144,190.49,110824,,,A*76
$GPGGA,131817.00,0830.28167,N,02620.44485,W,1,12,0.76,12966.7,M,7.8,M,,*7D
$GPRMC,131818.00,A,0830.15531,N,02620.46835,W,461.292,190.47,110824,,,A*73
$GPGGA,131818.00,0830.15531,N,02620.46835,W,1,12,0.76,12966.7,M,7.8,M,,*7E
$GPRMC,131819.00,A,0830.02890,N,02620.49187,W,461.358,190.50,110824,,,A*7C
$GPGGA,131819.00,0830.02890,N,02620.49187,W,1,12,0.76,12966.7,M,7.8,M,,*70
$GPRMC,131820.00,A,0829.90246,N,02620.51538,W,461.442,190.48,110824,,,A*78
$GPGGA,131820.00,0829.90246,N,02620.51538,W,1,12,0.76,12966.6,M,7.8,M,,*70
$GPRMC,131821.00,A,0829.77600,N,02620.53889,W,461.456,190.51,110824,,,A*7E
$GPGGA,131821.00,0829.77600,N,02620.53889,W,1,12,0.76,12966.4,M,7.8,M,,*79
$GPRMC,131822.00,A,0829.64952,N,02620.56245,W,461.552,190.52,110824,,,A*7E
$GPGGA,131822.00,0829.64952,N,02620.56245,W,1,12,0.76,12966.1,M,7.8,M,,*7A
$GPRMC,131823.00,A,0829.52305,N,02620.58605,W,461.704,190.55,110824,,,A*7A
$GPGGA,131823.00,0829.52305,N,02620.58605,W,1,12,0.76,12965.7,M,7.8,M,,*7D
$GPRMC,131824.00,A,0829.39654,N,02620.60968,W,461.881,190.54,110824,,,A*7D
$GPGGA,131824.00,0829.39654,N,02620.60968,W,1,12,0.76,12965.5,M,7.8,M,,*7B
$GPRMC,131825.00,A,0829.26999,N,02620.63331,W,461.965,190.53,110824,,,A*75
$GPGGA,131825.00,0829.26999,N,02620.63331,W,1,12,0.76,12965.3,M,7.8,M,,*79
$GPRMC,131826.00,A,0829.14343,N,02620.65699,W,462.017,190.57,110824,,,A*70
$GPGGA,131826.00,0829.14343,N,02620.65699,W,1,12,0.76,12965.3,M,7.8,M,,*77
$GPRMC,131827.00,A,0829.01688,N,02620.68069,W,462.072,190.55,110824,,,A*72
$GPGGA,131827.00,0829.01688,N,02620.68069,W,1,12,0.76,12965.3,M,7.8,M,,*74
$GPRMC,131828.00,A,0828.89031,N,02620.70437,W,462.019,190.55,110824,,,A*73
$GPGGA,131828.00,0828.89031,N,02620.70437,W,1,12,0.76,12965.2,M,7.8,M,,*79
$GPRMC,131829.00,A,0828.76371,N,02620.72806,W,462.320,190.55,110824,,,A*70
$GPGGA,131829.00,0828.76371,N,02620.72806,W,1,12,0.76,12964.9,M,7.8,M,,*79
$GPRMC,131830.00,A,0828.63707,N,02620.75171,W,462.290,190.51,110824,,,A*79
$GPGGA,131830.00,0828.63707,N,02620.75171,W,1,12,0.76,12964.8,M,7.8,M,,*7F
$GPRMC,131831.00,A,0828.51041,N,02620.77532,W,462.389,190.50,110824,,,A*75
$GPGGA,131831.00,0828.51041,N,02620.77532,W,1,12,0.76,12964.6,M,7.8,M,,*75
$GPRMC,131832.00,A,0828.38370,N,02620.79891,W,462.566,190.49,110824,,,A*7D
$GPGGA,131832.00,0828.38370,N,02620.79891,W,1,12,0.76,12964.5,M,7.8,M,,*71
$GPRMC,131833.00,A,0828.25695,N,02620.82245,W,462.579,190.49,110824,,,A*77
$GPGGA,131833.00,0828.25695,N,02620.82245,W,1,12,0.76,12964.5,M,7.8,M,,*75
$GPRMC,131834.00,A,0828.13016,N,02620.84600,W,462.797,190.50,110824,,,A*71
$GPGGA,131834.00,0828.13016,N,02620.84600,W,1,12,0.76,12964.6,M,7.8,M,,*7A
$GPRMC,131835.00,A,0828.00334,N,02620.86954,W,462.845,190.48,110824,,,A*74
$GPGGA,131835.00,0828.00334,N,02620.86954,W,1,12,0.76,12964.4,M,7.8,M,,*74
$GPRMC,131836.00,A,0827.87650,N,02620.89309,W,462.948,190.47,110824,,,A*7E
$GPGGA,131836.00,0827.87650,N,02620.89309,W,1,12,0.76,12964.2,M,7.8,M,,*7B
$GPRMC,131837.00,A,0827.74962,N,02620.91665,W,463.087,190.50,110824,,,A*76
$GPGGA,131837.00,0827.74962,N,02620.91665,W,1,12,0.76,12963.9,M,7.8,M,,*72
$GPRMC,131838.00,A,0827.62270,N,02620.94022,W,463.166,190.50,110824,,,A*78
$GPGGA,131838.00,0827.62270,N,02620.94022,W,1,12,0.76,12963.8,M,7.8,M,,*73
$GPRMC,131839.00,A,0827.49577,N,02620.96379,W,463.200,190.52,110824,,,A*7E
$GPGGA,131839.00,0827.49577,N,02620.96379,W,1,12,0.76,12963.5,M,7.8,M,,*79
$GPRMC,131840.00,A,0827.36881,N,02620.98744,W,463.388,190.56,110824,,,A*7D
$GPGGA,131840.00,0827.36881,N,02620.98744,W,1,12,0.76,12963.4,M,7.8,M,,*7E
$GPRMC,131841.00,A,0827.24184,N,02621.01115,W,463.463,190.55,110824,,,A*71
$GPGGA,131841.00,0827.24184,N,02621.01115,W,1,12,0.76,12963.6,M,7.8,M,,*71
$GPRMC,131842.00,A,0827.11484,N,02621.03486,W,463.570,190.54,110824,,,A*7E
$GPGGA,131842.00,0827.11484,N,02621.03486,W,1,12,0.76,12963.8,M,7.8,M,,*72
$GPRMC,131843.00,A,0826.98784,N,02621.05855,W,463.576,190.53,110824,,,A*79
$GPGGA,131843.00,0826.98784,N,02621.05855,W,1,12,0.76,12963.9,M,7.8,M,,*75
$GPRMC,131844.00,A,0826.86083,N,02621.08222,W,463.723,190.51,110824,,,A*76
$GPGGA,131844.00,0826.86083,N,02621.08222,W,1,12,0.76,12963.9,M,7.8,M,,*7A
$GPRMC,131845.00,A,0826.73378,N,02621.10590,W,463.782,190.51,110824,,,A*76
$GPGGA,131845.00,0826.73378,N,02621.10590,W,1,12,0.76,12964.1,M,7.8,M,,*7E
$GPRMC,131846.00,A,0826.60670,N,02621.12959,W,463.843,190.52,110824,,,A*70
$GPGGA,131846.00,0826.60670,N,02621.12959,W,1,12,0.76,12964.3,M,7.8,M,,*7B
$GPRMC,131847.00,A,0826.47959,N,02621.15327,W,463.840,190.52,110824,,,A*77
$GPGGA,131847.00,0826.47959,N,02621.15327,W,1,12,0.76,12964.5,M,7.8,M,,*79
$GPRMC,131848.00,A,0826.35247,N,02621.17696,W,464.035,190.54,110824,,,A*7F
$GPGGA,131848.00,0826.35247,N,02621.17696,W,1,12,0.76,12964.4,M,7.8,M,,*7B
$GPRMC,131849.00,A,0826.22529,N,02621.20070,W,464.203,190.55,110824,,,A*7B
$GPGGA,131849.00,0826.22529,N,02621.20070,W,1,12,0.76,12964.4,M,7.8,M,,*79
$GPRMC,131850.00,A,0826.09813,N,02621.22447,W,464.217,190.56,110824,,,A*7A
$GPGGA,131850.00,0826.09813,N,02621.22447,W,1,12,0.76,12964.4,M,7.8,M,,*7E
$GPRMC,131851.00,A,0825.97097,N,02621.24822,W,464.265,190.53,110824,,,A*72
$GPGGA,131851.00,0825.97097,N,02621.24822,W,1,12,0.76,12964.8,M,7.8,M,,*7A
$GPRMC,131852.00,A,0825.84377,N,02621.27197,W,464.380,190.55,110824,,,A*76
$GPGGA,131852.00,0825.84377,N,02621.27197,W,1,12,0.76,12965.0,M,7.8,M,,*7B
$GPRMC,131853.00,A,0825.71654,N,02621.29574,W,464.309,190.51,110824,,,A*7B
$GPGGA,131853.00,0825.71654,N,02621.29574,W,1,12,0.76,12965.5,M,7.8,M,,*76
$GPRMC,131854.00,A,0825.58930,N,02621.31946,W,464.440,190.51,110824,,,A*74
$GPGGA,131854.00,0825.58930,N,02621.31946,W,1,12,0.76,12965.9,M,7.8,M,,*7F
$GPRMC,131855.00,A,0825.46204,N,02621.34321,W,464.516,190.52,110824,,,A*79
$GPGGA,131855.00,0825.46204,N,02621.34321,W,1,12,0.76,12966.4,M,7.8,M,,*7D
$GPRMC,131856.00,A,0825.33477,N,02621.36696,W,464.559,190.51,110824,,,A*79
$GPGGA,131856.00,0825.33477,N,02621.36696,W,1,12,0.76,12967.0,M,7.8,M,,*70
$GPRMC,131857.00,A,0825.20750,N,02621.39074,W,464.636,190.54,110824,,,A*76
$GPGGA,131857.00,0825.20750,N,02621.39074,W,1,12,0.76,12967.3,M,7.8,M,,*73
$GPRMC,131858.00,A,0825.08021,N,02621.41459,W,464.807,190.56,110824,,,A*78
$GPGGA,131858.00,0825.08021,N,02621.41459,W,1,12,0.76,12967.6,M,7.8,M,,*76
$GPRMC,131859.00,A,0824.95287,N,02621.43849,W,464.921,190.56,110824,,,A*78
$GPGGA,131859.00,0824.95287,N,02621.43849,W,1,12,0.76,12967.6,M,7.8,M,,*73
$GPRMC,131900.00,A,0824.82551,N,02621.46233,W,465.037,190.52,110824,,,A*76
$GPGGA,131900.00,0824.82551,N,02621.46233,W,1,12,0.76,12967.5,M,7.8,M,,*75
$GPRMC,131901.00,A,0824.69810,N,02621.48614,W,465.237,190.54,110824,,,A*71
$GPGGA,131901.00,0824.69810,N,02621.48614,W,1,12,0.76,12967.3,M,7.8,M,,*70
$GPRMC,131902.00,A,0824.57064,N,02621.50999,W,465.376,190.56,110824,,,A*71
$GPGGA,131902.00,0824.57064,N,02621.50999,W,1,12,0.76,12966.9,M,7.8,M,,*7D
$GPRMC,131903.00,A,0824.44314,N,02621.53392,W,465.530,190.58,110824,,,A*7E
$GPGGA,131903.00,0824.44314,N,02621.53392,W,1,12,0.76,12966.7,M,7.8,M,,*76
$GPRMC,131904.00,A,0824.31561,N,02621.55790,W,465.613,190.58,110824,,,A*7D
$GPGGA,131904.00,0824.31561,N,02621.55790,W,1,12,0.76,12966.6,M,7.8,M,,*76
$GPRMC,131905.00,A,0824.18807,N,02621.58190,W,465.776,190.59,110824,,,A*72
$GPGGA,131905.00,0824.18807,N,02621.58190,W,1,12,0.76,12966.6,M,7.8,M,,*7A
$GPRMC,131906.00,A,0824.06047,N,02621.60587,W,465.950,190.57,110824,,,A*7F
$GPGGA,131906.00,0824.06047,N,02621.60587,W,1,12,0.76,12966.7,M,7.8,M,,*72
$GPRMC,131907.00,A,0823.93283,N,02621.62982,W,466.037,190.56,110824,,,A*7E
$GPGGA,131907.00,0823.93283,N,02621.62982,W,1,12,0.76,12967.2,M,7.8,M,,*7D
$GPRMC,131908.00,A,0823.80516,N,02621.65378,W,466.088,190.56,110824,,,A*74
$GPGGA,131908.00,0823.80516,N,02621.65378,W,1,12,0.76,12967.6,M,7.8,M,,*77
$GPRMC,131909.00,A,0823.67750,N,02621.67776,W,466.183,190.59,110824,,,A*71
$GPGGA,131909.00,0823.67750,N,02621.67776,W,1,12,0.76,12968.0,M,7.8,M,,*7E
$GPRMC,131910.00,A,0823.54981,N,02621.70176,W,466.277,190.58,110824,,,A*72
$GPGGA,131910.00,0823.54981,N,02621.70176,W,1,12,0.76,12968.3,M,7.8,M,,*77
$GPRMC,131911.00,A,0823.42209,N,02621.72577,W,466.486,190.57,110824,,,A*7F
$GPGGA,131911.00,0823.42209,N,02621.72577,W,1,12,0.76,12968.4,M,7.8,M,,*7A
$GPRMC,131912.00,A,0823.29433,N,02621.74976,W,466.550,190.56,110824,,,A*7E
$GPGGA,131912.00,0823.29433,N,02621.74976,W,1,12,0.76,12968.4,M,7.8,M,,*70
$GPRMC,131913.00,A,0823.16653,N,02621.77376,W,466.771,190.55,110824,,,A*7C
$GPGGA,131913.00,0823.16653,N,02621.77376,W,1,12,0.76,12968.4,M,7.8,M,,*70
$GPRMC,131914.00,A,0823.03866,N,02621.79773,W,466.904,190.54,110824,,,A*75
$GPGGA,131914.00,0823.03866,N,02621.79773,W,1,12,0.76,12968.5,M,7.8,M,,*75
$GPRMC,131915.00,A,0822.91076,N,02621.82169,W,467.064,190.53,110824,,,A*77
$GPGGA,131915.00,0822.91076,N,02621.82169,W,1,12,0.76,12968.2,M,7.8,M,,*79
$GPRMC,131916.00,A,0822.78282,N,02621.84566,W,467.164,190.55,110824,,,A*70
$GPGGA,131916.00,0822.78282,N,02621.84566,W,1,12,0.76,12968.1,M,7.8,M,,*7A
$GPRMC,131917.00,A,0822.65486,N,02621.86963,W,467.137,190.55,110824,,,A*72
$GPGGA,131917.00,0822.65486,N,02621.86963,W,1,12,0.76,12967.9,M,7.8,M,,*79
$GPRMC,131918.00,A,0822.52687,N,02621.89358,W,467.281,190.56,110824,,,A*7A
$GPGGA,131918.00,0822.52687,N,02621.89358,W,1,12,0.76,12967.9,M,7.7,M,,*73
$GPRMC,131919.00,A,0822.39886,N,02621.91755,W,467.408,190.56,110824,,,A*7E
$GPGGA,131919.00,0822.39886,N,02621.91755,W,1,12,0.76,12967.7,M,7.7,M,,*7E
$GPRMC,131920.00,A,0822.27081,N,02621.94152,W,467.528,190.58,110824,,,A*7D
$GPGGA,131920.00,0822.27081,N,02621.94152,W,1,12,0.76,12967.6,M,7.7,M,,*71
$GPRMC,131921.00,A,0822.14271,N,02621.96549,W,467.644,190.55,110824,,,A*79
$GPGGA,131921.00,0822.14271,N,02621.96549,W,1,12,0.76,12967.5,M,7.7,M,,*72
$GPRMC,131922.00,A,0822.01459,N,02621.98945,W,467.751,190.56,110824,,,A*7A
$GPGGA,131922.00,0822.01459,N,02621.98945,W,1,12,0.76,12967.5,M,7.7,M,,*77
$GPRMC,131923.00,A,0821.88643,N,02622.01343,W,467.847,190.56,110824,,,A*77
$GPGGA,131923.00,0821.88643,N,02622.01343,W,1,12,0.76,12967.7,M,7.7,M,,*70
$GPRMC,131924.00,A,0821.75822,N,02622.03740,W,468.026,190.56,110824,,,A*7E
$GPGGA,131924.00,0821.75822,N,02622.03740,W,1,12,0.76,12968.0,M,7.7,M,,*71
$GPRMC,131925.00,A,0821.62999,N,02622.06138,W,468.014,190.59,110824,,,A*7A
$GPGGA,131925.00,0821.62999,N,02622.06138,W,1,12,0.76,12968.2,M,7.7,M,,*79
$GPRMC,131926.00,A,0821.50175,N,02622.08542,W,468.137,190.61,110824,,,A*7E
$GPGGA,131926.00,0821.50175,N,02622.08542,W,1,12,0.76,12968.5,M,7.7,M,,*71
$GPRMC,131927.00,A,0821.37350,N,02622.10949,W,468.154,190.63,110824,,,A*72
$GPGGA,131927.00,0821.37350,N,02622.10949,W,1,12,0.76,12968.9,M,7.7,M,,*76
$GPRMC,131928.00,A,0821.24524,N,02622.13361,W,468.219,190.63,110824,,,A*73
$GPGGA,131928.00,0821.24524,N,02622.13361,W,1,12,0.76,12969.2,M,7.7,M,,*77
$GPRMC,131929.00,A,0821.11697,N,02622.15775,W,468.378,190.63,110824,,,A*7E
$GPGGA,131929.00,0821.11697,N,02622.15775,W,1,12,0.76,12969.4,M,7.7,M,,*7A
$GPRMC,131930.00,A,0820.98869,N,02622.18193,W,468.379,190.65,110824,,,A*7D
$GPGGA,131930.00,0820.98869,N,02622.18193,W,1,12,0.76,12969.7,M,7.7,M,,*7D
$GPRMC,131931.00,A,0820.86039,N,02622.20615,W,468.515,190.65,110824,,,A*70
$GPGGA,131931.00,0820.86039,N,02622.20615,W,1,12,0.76,12969.8,M,7.7,M,,*73
$GPRMC,131932.00,A,0820.73205,N,02622.23040,W,468.653,190.67,110824,,,A*72
$GPGGA,131932.00,0820.73205,N,02622.23040,W,1,12,0.76,12969.7,M,7.7,M,,*7D
$GPRMC,131933.00,A,0820.60369,N,02622.25467,W,468.676,190.68,110824,,,A*75
$GPGGA,131933.00,0820.60369,N,02622.25467,W,1,12,0.76,12969.6,M,7.7,M,,*73
$GPRMC,131934.00,A,0820.47533,N,02622.27896,W,468.691,190.69,110824,,,A*76
$GPGGA,131934.00,0820.47533,N,02622.27896,W,1,12,0.76,12969.4,M,7.7,M,,*7A
$GPRMC,131935.00,A,0820.34695,N,02622.30330,W,468.995,190.71,110824,,,A*7F
$GPGGA,131935.00,0820.34695,N,02622.30330,W,1,12,0.76,12969.1,M,7.7,M,,*74
$GPRMC,131936.00,A,0820.21853,N,02622.32767,W,468.989,190.71,110824,,,A*75
$GPGGA,131936.00,0820.21853,N,02622.32767,W,1,12,0.76,12968.8,M,7.7,M,,*7B
$GPRMC,131937.00,A,0820.09009,N,02622.35206,W,469.161,190.71,110824,,,A*73
$GPGGA,131937.00,0820.09009,N,02622.35206,W,1,12,0.76,12968.6,M,7.7,M,,*7C
$GPRMC,131938.00,A,0819.96161,N,02622.37646,W,469.330,190.70,110824,,,A*7A
$GPGGA,131938.00,0819.96161,N,02622.37646,W,1,12,0.76,12968.6,M,7.7,M,,*72
$GPRMC,131939.00,A,0819.83313,N,02622.40086,W,469.316,190.70,110824,,,A*76
$GPGGA,131939.00,0819.83313,N,02622.40086,W,1,12,0.76,12968.6,M,7.7,M,,*7A
$GPRMC,131940.00,A,0819.70462,N,02622.42523,W,469.401,190.69,110824,,,A*74
$GPGGA,131940.00,0819.70462,N,02622.42523,W,1,12,0.76,12968.7,M,7.7,M,,*70
$GPRMC,131941.00,A,0819.57606,N,02622.44956,W,469.545,190.67,110824,,,A*77
$GPGGA,131941.00,0819.57606,N,02622.44956,W,1,12,0.76,12969.1,M,7.7,M,,*7B
$GPRMC,131942.00,A,0819.44750,N,02622.47387,W,469.451,190.67,110824,,,A*75
$GPGGA,131942.00,0819.44750,N,02622.47387,W,1,12,0.76,12969.4,M,7.7,M,,*78
$GPRMC,131943.00,A,0819.31892,N,02622.49818,W,469.599,190.67,110824,,,A*71
$GPGGA,131943.00,0819.31892,N,02622.49818,W,1,12,0.76,12969.7,M,7.7,M,,*7A
$GPRMC,131944.00,A,0819.19031,N,02622.52245,W,469.531,190.65,110824,,,A*75
$GPGGA,131944.00,0819.19031,N,02622.52245,W,1,12,0.76,12970.1,M,7.7,M,,*70
$GPRMC,131945.00,A,0819.06168,N,02622.54673,W,469.716,190.67,110824,,,A*75
$GPGGA,131945.00,0819.06168,N,02622.54673,W,1,12,0.76,12970.4,M,7.7,M,,*70
$GPRMC,131946.00,A,0818.93301,N,02622.57101,W,469.735,190.67,110824,,,A*76
$GPGGA,131946.00,0818.93301,N,02622.57101,W,1,12,0.76,12970.6,M,7.7,M,,*70
$GPRMC,131947.00,A,0818.80433,N,02622.59533,W,469.839,190.71,110824,,,A*7C
$GPGGA,131947.00,0818.80433,N,02622.59533,W,1,12,0.76,12970.8,M,7.7,M,,*70
$GPRMC,131948.00,A,0818.67564,N,02622.61970,W,470.071,190.70,110824,,,A*74
$GPGGA,131948.00,0818.67564,N,02622.61970,W,1,12,0.76,12970.9,M,7.7,M,,*74
$GPRMC,131949.00,A,0818.54692,N,02622.64410,W,470.071,190.72,110824,,,A*73
$GPGGA,131949.00,0818.54692,N,02622.64410,W,1,12,0.76,12970.9,M,7.7,M,,*71
$GPRMC,131950.00,A,0818.41819,N,02622.66855,W,470.089,190.73,110824,,,A*7B
$GPGGA,131950.00,0818.41819,N,02622.66855,W,1,12,0.76,12971.0,M,7.7,M,,*77
$GPRMC,131951.00,A,0818.28946,N,02622.69302,W,470.223,190.72,110824,,,A*7B
$GPGGA,131951.00,0818.28946,N,02622.69302,W,1,12,0.76,12970.7,M,7.7,M,,*72
$GPRMC,131952.00,A,0818.16069,N,02622.71750,W,470.368,190.72,110824,,,A*75
$GPGGA,131952.00,0818.16069,N,02622.71750,W,1,12,0.76,12970.3,M,7.7,M,,*76
$GPRMC,131953.00,A,0818.03193,N,02622.74197,W,470.222,190.71,110824,,,A*70
$GPGGA,131953.00,0818.03193,N,02622.74197,W,1,12,0.76,12970.0,M,7.7,M,,*7C
$GPRMC,131954.00,A,0817.90319,N,02622.76639,W,470.298,190.69,110824,,,A*7B
$GPGGA,131954.00,0817.90319,N,02622.76639,W,1,12,0.88,12969.5,M,7.7,M,,*73
$GPRMC,131955.00,A,0817.77440,N,02622.79077,W,470.522,190.66,110824,,,A*72
$GPGGA,131955.00,0817.77440,N,02622.79077,W,1,12,0.88,12969.3,M,7.7,M,,*75
$GPRMC,131956.00,A,0817.64557,N,02622.81516,W,470.491,190.66,110824,,,A*78
$GPGGA,131956.00,0817.64557,N,02622.81516,W,1,12,0.88,12968.9,M,7.7,M,,*7D
$GPRMC,131957.00,A,0817.51675,N,02622.83959,W,470.465,190.67,110824,,,A*73
$GPGGA,131957.00,0817.51675,N,02622.83959,W,1,12,0.88,12968.4,M,7.7,M,,*71
$GPRMC,131958.00,A,0817.38791,N,02622.86400,W,470.521,190.68,110824,,,A*72
$GPGGA,131958.00,0817.38791,N,02622.86400,W,1,12,0.88,12968.1,M,7.7,M,,*7B
$GPRMC,131959.00,A,0817.25907,N,02622.88840,W,470.635,190.66,110824,,,A*70
$GPGGA,131959.00,0817.25907,N,02622.88840,W,1,12,0.88,12967.7,M,7.7,M,,*78
$GPRMC,132000.00,A,0817.13019,N,02622.91280,W,470.646,190.66,110824,,,A*7F
$GPGGA,132000.00,0817.13019,N,02622.91280,W,1,12,0.88,12967.7,M,7.7,M,,*73
$GPRMC,132001.00,A,0817.00130,N,02622.93724,W,470.787,190.68,110824,,,A*7D
$GPGGA,132001.00,0817.00130,N,02622.93724,W,1,12,0.88,12967.8,M,7.7,M,,*7C
$GPRMC,132002.00,A,0816.87240,N,02622.96167,W,470.763,190.68,110824,,,A*7A
$GPGGA,132002.00,0816.87240,N,02622.96167,W,1,12,0.88,12967.9,M,7.7,M,,*70
$GPRMC,132003.00,A,0816.74346,N,02622.98609,W,470.817,190.67,110824,,,A*72
$GPGGA,132003.00,0816.74346,N,02622.98609,W,1,12,0.88,12968.2,M,7.7,M,,*7F
$GPRMC,132004.00,A,0816.61451,N,02623.01049,W,470.972,190.68,110824,,,A*7E
$GPGGA,132004.00,0816.61451,N,02623.01049,W,1,12,0.88,12968.4,M,7.7,M,,*78
$GPRMC,132005.00,A,0816.48554,N,02623.03489,W,470.942,190.69,110824,,,A*78
$GPGGA,132005.00,0816.48554,N,02623.03489,W,1,12,0.88,12968.9,M,7.7,M,,*71
$GPRMC,132006.00,A,0816.35658,N,02623.05929,W,470.994,190.69,110824,,,A*74
$GPGGA,132006.00,0816.35658,N,02623.05929,W,1,12,0.88,12969.1,M,7.7,M,,*7F
$GPRMC,132007.00,A,0816.22763,N,02623.08372,W,471.023,190.72,110824,,,A*7D
$GPGGA,132007.00,0816.22763,N,02623.08372,W,1,12,0.88,12969.0,M,7.7,M,,*79
$GPRMC,132008.00,A,0816.09867,N,02623.10815,W,471.109,190.73,110824,,,A*7B
$GPGGA,132008.00,0816.09867,N,02623.10815,W,1,12,0.88,12968.9,M,7.7,M,,*7F
$GPRMC,132009.00,A,0815.96967,N,02623.13263,W,471.089,190.74,110824,,,A*78
$GPGGA,132009.00,0815.96967,N,02623.13263,W,1,12,0.88,12968.8,M,7.7,M,,*73
$GPRMC,132010.00,A,0815.84070,N,02623.15719,W,471.200,190.77,110824,,,A*72
$GPGGA,132010.00,0815.84070,N,02623.15719,W,1,12,0.88,12968.6,M,7.7,M,,*77
$GPRMC,132011.00,A,0815.71172,N,02623.18176,W,471.010,190.75,110824,,,A*79
$GPGGA,132011.00,0815.71172,N,02623.18176,W,1,12,0.88,12968.3,M,7.7,M,,*78
$GPRMC,132012.00,A,0815.58279,N,02623.20631,W,470.824,190.74,110824,,,A*79
$GPGGA,132012.00,0815.58279,N,02623.20631,W,1,12,0.88,12968.0,M,7.7,M,,*74
$GPRMC,132013.00,A,0815.45388,N,02623.23084,W,470.862,190.73,110824,,,A*75
$GPGGA,132013.00,0815.45388,N,02623.23084,W,1,12,0.88,12967.7,M,7.7,M,,*75
$GPRMC,132014.00,A,0815.32493,N,02623.25529,W,470.807,190.68,110824,,,A*72
$GPGGA,132014.00,0815.32493,N,02623.25529,W,1,12,0.88,12967.3,M,7.7,M,,*7F
$GPRMC,132015.00,A,0815.19598,N,02623.27967,W,470.842,190.66,110824,,,A*7B
$GPGGA,132015.00,0815.19598,N,02623.27967,W,1,12,0.88,12967.0,M,7.7,M,,*7A
$GPRMC,132016.00,A,0815.06703,N,02623.30402,W,470.774,190.63,110824,,,A*71
$GPGGA,132016.00,0815.06703,N,02623.30402,W,1,12,0.88,12966.9,M,7.7,M,,*77
$GPRMC,132017.00,A,0814.93809,N,02623.32836,W,470.677,190.63,110824,,,A*73
$GPGGA,132017.00,0814.93809,N,02623.32836,W,1,12,0.88,12966.7,M,7.7,M,,*79
$GPRMC,132018.00,A,0814.80917,N,02623.35269,W,470.760,190.64,110824,,,A*77
$GPGGA,132018.00,0814.80917,N,02623.35269,W,1,12,0.88,12966.8,M,7.7,M,,*72
$GPRMC,132019.00,A,0814.68028,N,02623.37704,W,470.682,190.65,110824,,,A*75
$GPGGA,132019.00,0814.68028,N,02623.37704,W,1,12,0.88,12967.0,M,7.7,M,,*75
$GPRMC,132020.00,A,0814.55143,N,02623.40141,W,470.645,190.66,110824,,,A*72
$GPGGA,132020.00,0814.55143,N,02623.40141,W,1,12,0.88,12967.1,M,7.7,M,,*7B
$GPRMC,132021.00,A,0814.42257,N,02623.42579,W,470.535,190.67,110824,,,A*7B
$GPGGA,132021.00,0814.42257,N,02623.42579,W,1,12,0.88,12967.5,M,7.7,M,,*73
$GPRMC,132022.00,A,0814.29377,N,02623.45020,W,470.490,190.68,110824,,,A*79
$GPGGA,132022.00,0814.29377,N,02623.45020,W,1,12,0.88,12967.8,M,7.7,M,,*7D
$GPRMC,132023.00,A,0814.16497,N,02623.47463,W,470.378,190.70,110824,,,A*74
$GPGGA,132023.00,0814.16497,N,02623.47463,W,1,12,0.88,12968.2,M,7.7,M,,*7D
$GPRMC,132024.00,A,0814.03620,N,02623.49908,W,470.229,190.70,110824,,,A*72
$GPGGA,132024.00,0814.03620,N,02623.49908,W,1,12,0.88,12968.6,M,7.7,M,,*7A
$GPRMC,132025.00,A,0813.90746,N,02623.52353,W,470.122,190.73,110824,,,A*7A
$GPGGA,132025.00,0813.90746,N,02623.52353,W,1,12,0.88,12968.7,M,7.7,M,,*78
$GPRMC,132026.00,A,0813.77875,N,02623.54806,W,470.071,190.75,110824,,,A*73
$GPGGA,132026.00,0813.77875,N,02623.54806,W,1,12,0.88,12968.7,M,7.7,M,,*70
$GPRMC,132027.00,A,0813.65004,N,02623.57263,W,470.136,190.76,110824,,,A*74
$GPGGA,132027.00,0813.65004,N,02623.57263,W,1,12,0.88,12968.5,M,7.7,M,,*74
$GPRMC,132028.00,A,0813.52136,N,02623.59719,W,469.832,190.75,110824,,,A*7F
$GPGGA,132028.00,0813.52136,N,02623.59719,W,1,12,0.88,12968.2,M,7.7,M,,*7E
$GPRMC,132029.00,A,0813.39271,N,02623.62177,W,469.991,190.76,110824,,,A*7E
$GPGGA,132029.00,0813.39271,N,02623.62177,W,1,12,0.88,12967.7,M,7.7,M,,*7E
$GPRMC,132030.00,A,0813.26407,N,02623.64637,W,469.901,190.77,110824,,,A*72
$GPGGA,132030.00,0813.26407,N,02623.64637,W,1,12,0.88,12967.1,M,7.7,M,,*7C
$GPRMC,132031.00,A,0813.13547,N,02623.67093,W,469.694,190.76,110824,,,A*79
$GPGGA,132031.00,0813.13547,N,02623.67093,W,1,12,0.88,12966.8,M,7.7,M,,*7D
$GPRMC,132032.00,A,0813.00688,N,02623.69545,W,469.710,190.75,110824,,,A*76
$GPGGA,132032.00,0813.00688,N,02623.69545,W,1,12,0.88,12966.4,M,7.7,M,,*70
$GPRMC,132033.00,A,0812.87830,N,02623.71994,W,469.592,190.74,110824,,,A*74
$GPGGA,132033.00,0812.87830,N,02623.71994,W,1,12,0.88,12966.0,M,7.7,M,,*7F
$GPRMC,132034.00,A,0812.74973,N,02623.74443,W,469.542,190.73,110824,,,A*71
$GPGGA,132034.00,0812.74973,N,02623.74443,W,1,12,0.88,12966.0,M,7.7,M,,*70
$GPRMC,132035.00,A,0812.62118,N,02623.76889,W,469.428,190.71,110824,,,A*75
$GPGGA,132035.00,0812.62118,N,02623.76889,W,1,12,0.88,12966.2,M,7.7,M,,*79
$GPRMC,132036.00,A,0812.49267,N,02623.79332,W,469.252,190.72,110824,,,A*78
$GPGGA,132036.00,0812.49267,N,02623.79332,W,1,12,0.88,12966.5,M,7.7,M,,*7B
$GPRMC,132037.00,A,0812.36419,N,02623.81774,W,469.221,190.73,110824,,,A*7A
$GPGGA,132037.00,0812.36419,N,02623.81774,W,1,12,0.88,12967.0,M,7.7,M,,*78
$GPRMC,132038.00,A,0812.23572,N,02623.84214,W,469.157,190.70,110824,,,A*7A
$GPGGA,132038.00,0812.23572,N,02623.84214,W,1,12,0.88,12967.6,M,7.7,M,,*7F
$GPRMC,132039.00,A,0812.10729,N,02623.86647,W,468.951,190.69,110824,,,A*70
$GPGGA,132039.00,0812.10729,N,02623.86647,W,1,12,0.88,12968.2,M,7.7,M,,*79
$GPRMC,132040.00,A,0811.97890,N,02623.89079,W,468.799,190.69,110824,,,A*71
$GPGGA,132040.00,0811.97890,N,02623.89079,W,1,12,0.88,12968.7,M,7.7,M,,*77
$GPRMC,132041.00,A,0811.85052,N,02623.91512,W,468.931,190.72,110824,,,A*72
$GPGGA,132041.00,0811.85052,N,02623.91512,W,1,12,0.88,12969.1,M,7.7,M,,*75
$GPRMC,132042.00,A,0811.72216,N,02623.93948,W,468.668,190.72,110824,,,A*79
$GPGGA,132042.00,0811.72216,N,02623.93948,W,1,12,0.88,12969.5,M,7.7,M,,*79
$GPRMC,132043.00,A,0811.59386,N,02623.96381,W,468.651,190.73,110824,,,A*78
$GPGGA,132043.00,0811.59386,N,02623.96381,W,1,12,0.88,12969.7,M,7.7,M,,*71
$GPRMC,132044.00,A,0811.46554,N,02623.98815,W,468.552,190.73,110824,,,A*70
$GPGGA,132044.00,0811.46554,N,02623.98815,W,1,12,0.88,12969.9,M,7.7,M,,*77
$GPRMC,132045.00,A,0811.33722,N,02624.01249,W,468.601,190.71,110824,,,A*73
$GPGGA,132045.00,0811.33722,N,02624.01249,W,1,12,0.88,12970.2,M,7.7,M,,*70
$GPRMC,132046.00,A,0811.20890,N,02624.03681,W,468.453,190.70,110824,,,A*72
$GPGGA,132046.00,0811.20890,N,02624.03681,W,1,12,0.88,12970.4,M,7.7,M,,*73
$GPRMC,132047.00,A,0811.08060,N,02624.06110,W,468.313,190.67,110824,,,A*71
$GPGGA,132047.00,0811.08060,N,02624.06110,W,1,12,0.88,12970.7,M,7.7,M,,*76
$GPRMC,132048.00,A,0810.95233,N,02624.08535,W,468.255,190.66,110824,,,A*70
$GPGGA,132048.00,0810.95233,N,02624.08535,W,1,12,0.88,12970.6,M,7.7,M,,*74
$GPRMC,132049.00,A,0810.82407,N,02624.10960,W,468.326,190.69,110824,,,A*79
$GPGGA,132049.00,0810.82407,N,02624.10960,W,1,12,0.88,12970.4,M,7.7,M,,*75
$GPRMC,132050.00,A,0810.69581,N,02624.13385,W,468.328,190.68,110824,,,A*76
$GPGGA,132050.00,0810.69581,N,02624.13385,W,1,12,0.88,12970.1,M,7.7,M,,*70
$GPRMC,132051.00,A,0810.56755,N,02624.15810,W,468.389,190.68,110824,,,A*7A
$GPGGA,132051.00,0810.56755,N,02624.15810,W,1,12,0.88,12969.8,M,7.7,M,,*76
$GPRMC,132052.00,A,0810.43930,N,02624.18240,W,468.348,190.70,110824,,,A*76
$GPGGA,132052.00,0810.43930,N,02624.18240,W,1,12,0.88,12969.5,M,7.7,M,,*73
$GPRMC,132053.00,A,0810.31106,N,02624.20670,W,468.391,190.72,110824,,,A*75
$GPGGA,132053.00,0810.31106,N,02624.20670,W,1,12,0.88,12969.0,M,7.7,M,,*73
$GPRMC,132054.00,A,0810.18281,N,02624.23099,W,468.444,190.71,110824,,,A*7B
$GPGGA,132054.00,0810.18281,N,02624.23099,W,1,12,0.88,12968.6,M,7.7,M,,*76
$GPRMC,132055.00,A,0810.05455,N,02624.25529,W,468.377,190.70,110824,,,A*77
$GPGGA,132055.00,0810.05455,N,02624.25529,W,1,12,0.87,12968.4,M,7.7,M,,*71
$GPRMC,132056.00,A,0809.92631,N,02624.27958,W,468.322,190.69,110824,,,A*72
$GPGGA,132056.00,0809.92631,N,02624.27958,W,1,12,0.87,12968.1,M,7.7,M,,*79
$GPRMC,132057.00,A,0809.79807,N,02624.30387,W,468.309,190.70,110824,,,A*72
$GPGGA,132057.00,0809.79807,N,02624.30387,W,1,12,0.87,12968.2,M,7.7,M,,*7B
$GPRMC,132058.00,A,0809.66984,N,02624.32814,W,468.177,190.68,110824,,,A*78
$GPGGA,132058.00,0809.66984,N,02624.32814,W,1,12,0.87,12968.2,M,7.7,M,,*73
$GPRMC,132059.00,A,0809.54163,N,02624.35239,W,468.147,190.68,110824,,,A*78
$GPGGA,132059.00,0809.54163,N,02624.35239,W,1,12,0.87,12968.4,M,7.6,M,,*77
$GPRMC,132100.00,A,0809.41342,N,02624.37661,W,468.230,190.67,110824,,,A*77
$GPGGA,132100.00,0809.41342,N,02624.37661,W,1,12,0.87,12968.5,M,7.6,M,,*75
$GPRMC,132101.00,A,0809.28521,N,02624.40079,W,468.239,190.66,110824,,,A*7D
$GPGGA,132101.00,0809.28521,N,02624.40079,W,1,12,0.87,12968.7,M,7.6,M,,*75
$GPRMC,132102.00,A,0809.15699,N,02624.42495,W,468.162,190.65,110824,,,A*7A
$GPGGA,132102.00,0809.15699,N,02624.42495,W,1,12,0.87,12969.1,M,7.6,M,,*7B
$GPRMC,132103.00,A,0809.02880,N,02624.44913,W,468.105,190.65,110824,,,A*7F
$GPGGA,132103.00,0809.02880,N,02624.44913,W,1,12,0.87,12969.4,M,7.6,M,,*7A
$GPRMC,132104.00,A,0808.90062,N,02624.47332,W,468.031,190.65,110824,,,A*7A
$GPGGA,132104.00,0808.90062,N,02624.47332,W,1,12,0.87,12969.8,M,7.6,M,,*75
$GPRMC,132105.00,A,0808.77246,N,02624.49753,W,468.025,190.65,110824,,,A*7E
$GPGGA,132105.00,0808.77246,N,02624.49753,W,1,12,0.87,12970.2,M,7.6,M,,*76
$GPRMC,132106.00,A,0808.64428,N,02624.52175,W,468.082,190.67,110824,,,A*76
$GPGGA,132106.00,0808.64428,N,02624.52175,W,1,12,0.87,12970.5,M,7.6,M,,*76
$GPRMC,132107.00,A,0808.51610,N,02624.54599,W,468.018,190.67,110824,,,A*7B
$GPGGA,132107.00,0808.51610,N,02624.54599,W,1,12,0.87,12970.8,M,7.6,M,,*75
$GPRMC,132108.00,A,0808.38795,N,02624.57028,W,467.895,190.69,110824,,,A*77
$GPGGA,132108.00,0808.38795,N,02624.57028,W,1,12,0.87,12970.9,M,7.6,M,,*74
$GPRMC,132109.00,A,0808.25981,N,02624.59455,W,467.922,190.66,110824,,,A*73
$GPGGA,132109.00,0808.25981,N,02624.59455,W,1,12,0.87,12970.6,M,7.6,M,,*7D
$GPRMC,132110.00,A,0808.13166,N,02624.61880,W,467.910,190.68,110824,,,A*7F
$GPGGA,132110.00,0808.13166,N,02624.61880,W,1,12,0.87,12970.3,M,7.6,M,,*7B
$GPRMC,132111.00,A,0808.00351,N,02624.64305,W,468.061,190.66,110824,,,A*77
$GPGGA,132111.00,0808.00351,N,02624.64305,W,1,12,0.87,12969.9,M,7.6,M,,*7F
$GPRMC,132112.00,A,0807.87533,N,02624.66731,W,467.966,190.67,110824,,,A*77
$GPGGA,132112.00,0807.87533,N,02624.66731,W,1,12,0.87,12969.5,M,7.6,M,,*73
$GPRMC,132113.00,A,0807.74716,N,02624.69157,W,468.139,190.68,110824,,,A*74
$GPGGA,132113.00,0807.74716,N,02624.69157,W,1,12,0.87,12968.9,M,7.6,M,,*7F
$GPRMC,132114.00,A,0807.61895,N,02624.71588,W,468.131,190.70,110824,,,A*7D
$GPGGA,132114.00,0807.61895,N,02624.71588,W,1,12,0.87,12968.4,M,7.6,M,,*7A
$GPRMC,132115.00,A,0807.49076,N,02624.74021,W,468.193,190.69,110824,,,A*70
$GPGGA,132115.00,0807.49076,N,02624.74021,W,1,12,0.87,12967.7,M,7.6,M,,*7B
$GPRMC,132116.00,A,0807.36257,N,02624.76454,W,468.055,190.69,110824,,,A*75
$GPGGA,132116.00,0807.36257,N,02624.76454,W,1,12,0.87,12967.2,M,7.6,M,,*70
$GPRMC,132117.00,A,0807.23437,N,02624.78887,W,468.104,190.69,110824,,,A*79
$GPGGA,132117.00,0807.23437,N,02624.78887,W,1,12,0.87,12966.5,M,7.6,M,,*7F
$GPRMC,132118.00,A,0807.10619,N,02624.81319,W,468.094,190.68,110824,,,A*7B
$GPGGA,132118.00,0807.10619,N,02624.81319,W,1,12,0.87,12965.7,M,7.6,M,,*75
$GPRMC,132119.00,A,0806.97800,N,02624.83748,W,468.031,190.67,110824,,,A*70
$GPGGA,132119.00,0806.97800,N,02624.83748,W,1,12,0.87,12965.1,M,7.6,M,,*78
$GPRMC,132120.00,A,0806.84982,N,02624.86173,W,468.052,190.67,110824,,,A*7D
$GPGGA,132120.00,0806.84982,N,02624.86173,W,1,12,0.87,12964.7,M,7.6,M,,*77
$GPRMC,132121.00,A,0806.72163,N,02624.88597,W,467.961,190.65,110824,,,A*76
$GPGGA,132121.00,0806.72163,N,02624.88597,W,1,12,0.87,12964.4,M,7.6,M,,*7B
$GPRMC,132122.00,A,0806.59345,N,02624.91015,W,468.004,190.64,110824,,,A*79
$GPGGA,132122.00,0806.59345,N,02624.91015,W,1,12,0.87,12964.2,M,7.6,M,,*76
$GPRMC,132123.00,A,0806.46528,N,02624.93435,W,467.890,190.67,110824,,,A*76
$GPGGA,132123.00,0806.46528,N,02624.93435,W,1,12,0.87,12964.4,M,7.6,M,,*76
$GPRMC,132124.00,A,0806.33713,N,02624.95859,W,467.874,190.68,110824,,,A*7C
$GPGGA,132124.00,0806.33713,N,02624.95859,W,1,12,0.87,12964.5,M,7.6,M,,*78
$GPRMC,132125.00,A,0806.20902,N,02624.98289,W,467.857,190.70,110824,,,A*73
$GPGGA,132125.00,0806.20902,N,02624.98289,W,1,12,0.87,12964.7,M,7.6,M,,*7D
$GPRMC,132126.00,A,0806.08096,N,02625.00721,W,467.638,190.72,110824,,,A*7C
$GPGGA,132126.00,0806.08096,N,02625.00721,W,1,12,0.87,12965.0,M,7.6,M,,*71
$GPRMC,132127.00,A,0805.95292,N,02625.03155,W,467.656,190.71,110824,,,A*71
$GPGGA,132127.00,0805.95292,N,02625.03155,W,1,12,0.87,12965.2,M,7.6,M,,*75
$GPRMC,132128.00,A,0805.82489,N,02625.05592,W,467.548,190.70,110824,,,A*70
$GPGGA,132128.00,0805.82489,N,02625.05592,W,1,12,0.87,12965.5,M,7.6,M,,*7E
$GPRMC,132129.00,A,0805.69685,N,02625.08017,W,467.549,190.66,110824,,,A*79
$GPGGA,132129.00,0805.69685,N,02625.08017,W,1,12,0.87,12965.5,M,7.6,M,,*71
$GPRMC,132130.00,A,0805.56880,N,02625.10436,W,467.580,190.69,110824,,,A*72
$GPGGA,132130.00,0805.56880,N,02625.10436,W,1,12,0.87,12965.1,M,7.6,M,,*74
$GPRMC,132131.00,A,0805.44074,N,02625.12860,W,467.532,190.72,110824,,,A*7D
$GPGGA,132131.00,0805.44074,N,02625.12860,W,1,12,0.87,12964.6,M,7.6,M,,*7E
$GPRMC,132132.00,A,0805.31271,N,02625.15287,W,467.596,190.70,110824,,,A*73
$GPGGA,132132.00,0805.31271,N,02625.15287,W,1,12,0.87,12964.1,M,7.6,M,,*7B
$GPRMC,132133.00,A,0805.18466,N,02625.17717,W,467.507,190.69,110824,,,A*77
$GPGGA,132133.00,0805.18466,N,02625.17717,W,1,12,0.87,12964.8,M,7.6,M,,*76
$GPRMC,132134.00,A,0805.05663,N,02625.20141,W,467.405,190.67,110824,,,A*77
$GPGGA,132134.00,0805.05663,N,02625.20141,W,1,12,0.87,12966.2,M,7.6,M,,*73
$GPRMC,132135.00,A,0804.92862,N,02625.22559,W,467.406,190.67,110824,,,A*7A
$GPGGA,132135.00,0804.92862,N,02625.22559,W,1,12,0.87,12967.5,M,7.6,M,,*7B
$GPRMC,132136.00,A,0804.80062,N,02625.24981,W,467.414,190.70,110824,,,A*78
$GPGGA,132136.00,0804.80062,N,02625.24981,W,1,12,0.87,12968.7,M,7.6,M,,*71
$GPRMC,132137.00,A,0804.67262,N,02625.27405,W,467.466,190.70,110824,,,A*75
$GPGGA,132137.00,0804.67262,N,02625.27405,W,1,12,0.87,12969.4,M,7.6,M,,*7B
$GPRMC,132138.00,A,0804.54461,N,02625.29830,W,467.504,190.71,110824,,,A*7F
$GPGGA,132138.00,0804.54461,N,02625.29830,W,1,11,0.87,12969.4,M,7.6,M,,*76
$GPRMC,132139.00,A,0804.41657,N,02625.32256,W,467.630,190.71,110824,,,A*79
$GPGGA,132139.00,0804.41657,N,02625.32256,W,1,11,0.87,12968.9,M,7.6,M,,*78
$GPRMC,132140.00,A,0804.28853,N,02625.34683,W,467.591,190.71,110824,,,A*70
$GPGGA,132140.00,0804.28853,N,02625.34683,W,1,11,0.87,12968.2,M,7.6,M,,*72
$GPRMC,132141.00,A,0804.16046,N,02625.37105,W,467.720,190.70,110824,,,A*73
$GPGGA,132141.00,0804.16046,N,02625.37105,W,1,11,0.87,12967.2,M,7.6,M,,*77
$GPRMC,132142.00,A,0804.03239,N,02625.39531,W,467.657,190.71,110824,,,A*73
$GPGGA,132142.00,0804.03239,N,02625.39531,W,1,11,0.87,12966.2,M,7.6,M,,*76
$GPRMC,132143.00,A,0803.90433,N,02625.41957,W,467.724,190.70,110824,,,A*74
$GPGGA,132143.00,0803.90433,N,02625.41957,W,1,11,0.87,12965.5,M,7.6,M,,*71
$GPRMC,132144.00,A,0803.77623,N,02625.44382,W,467.752,190.71,110824,,,A*7E
$GPGGA,132144.00,0803.77623,N,02625.44382,W,1,11,0.87,12965.0,M,7.6,M,,*7E
$GPRMC,132145.00,A,0803.64814,N,02625.46807,W,467.700,190.70,110824,,,A*75
$GPGGA,132145.00,0803.64814,N,02625.46807,W,1,11,0.87,12964.8,M,7.6,M,,*7A
$GPRMC,132146.00,A,0803.52006,N,02625.49232,W,467.582,190.69,110824,,,A*7B
$GPGGA,132146.00,0803.52006,N,02625.49232,W,1,11,0.87,12965.2,M,7.6,M,,*7F
$GPRMC,132147.00,A,0803.39202,N,02625.51658,W,467.567,190.72,110824,,,A*71
$GPGGA,132147.00,0803.39202,N,02625.51658,W,1,11,0.87,12965.8,M,7.6,M,,*7E
$GPRMC,132148.00,A,0803.26398,N,02625.54083,W,467.498,190.69,110824,,,A*7C
$GPGGA,132148.00,0803.26398,N,02625.54083,W,1,11,0.87,12966.4,M,7.6,M,,*77
$GPRMC,132149.00,A,0803.13597,N,02625.56508,W,467.346,190.69,110824,,,A*72
$GPGGA,132149.00,0803.13597,N,02625.56508,W,1,11,0.87,12966.9,M,7.6,M,,*70
$GPRMC,132150.00,A,0803.00797,N,02625.58930,W,467.490,190.68,110824,,,A*7E
$GPGGA,132150.00,0803.00797,N,02625.58930,W,1,11,0.87,12967.0,M,7.6,M,,*79
$GPRMC,132151.00,A,0802.87995,N,02625.61350,W,467.455,190.70,110824,,,A*7B
$GPGGA,132151.00,0802.87995,N,02625.61350,W,1,11,0.87,12966.7,M,7.6,M,,*7A
$GPRMC,132152.00,A,0802.75195,N,02625.63771,W,467.510,190.71,110824,,,A*79
$GPGGA,132152.00,0802.75195,N,02625.63771,W,1,11,0.87,12966.0,M,7.6,M,,*7E
$GPRMC,132153.00,A,0802.62396,N,02625.66196,W,467.390,190.71,110824,,,A*7B
$GPGGA,132153.00,0802.62396,N,02625.66196,W,1,11,0.87,12965.3,M,7.6,M,,*72
$GPRMC,132154.00,A,0802.49599,N,02625.68623,W,467.320,190.71,110824,,,A*70
$GPGGA,132154.00,0802.49599,N,02625.68623,W,1,11,0.87,12964.8,M,7.6,M,,*78
$GPRMC,132155.00,A,0802.36802,N,02625.71050,W,467.343,190.70,110824,,,A*78
$GPGGA,132155.00,0802.36802,N,02625.71050,W,1,11,0.87,12964.5,M,7.6,M,,*79
$GPRMC,132156.00,A,0802.24003,N,02625.73475,W,467.385,190.69,110824,,,A*72
$GPGGA,132156.00,0802.24003,N,02625.73475,W,1,11,0.87,12964.7,M,7.6,M,,*73
$GPRMC,132157.00,A,0802.11204,N,02625.75896,W,467.251,190.66,110824,,,A*70
$GPGGA,132157.00,0802.11204,N,02625.75896,W,1,11,0.87,12965.4,M,7.6,M,,*74
$GPRMC,132158.00,A,0801.98407,N,02625.78310,W,467.179,190.63,110824,,,A*7C
$GPGGA,132158.00,0801.98407,N,02625.78310,W,1,11,0.87,12966.2,M,7.6,M,,*71
$GPRMC,132159.00,A,0801.85613,N,02625.80720,W,467.095,190.65,110824,,,A*73
$GPGGA,132159.00,0801.85613,N,02625.80720,W,1,11,0.87,12966.9,M,7.6,M,,*70
$GPRMC,132200.00,A,0801.72820,N,02625.83131,W,467.128,190.66,110824,,,A*7B
$GPGGA,132200.00,0801.72820,N,02625.83131,W,1,11,0.87,12967.6,M,7.6,M,,*72
$GPRMC,132201.00,A,0801.60029,N,02625.85544,W,467.101,190.68,110824,,,A*7D
$GPGGA,132201.00,0801.60029,N,02625.85544,W,1,11,0.87,12968.1,M,7.6,M,,*79
$GPRMC,132202.00,A,0801.47238,N,02625.87963,W,467.012,190.69,110824,,,A*70
$GPGGA,132202.00,0801.47238,N,02625.87963,W,1,11,0.87,12968.5,M,7.6,M,,*72
$GPRMC,132203.00,A,0801.34449,N,02625.90381,W,467.045,190.69,110824,,,A*77
$GPGGA,132203.00,0801.34449,N,02625.90381,W,1,11,0.87,12968.6,M,7.6,M,,*74
$GPRMC,132204.00,A,0801.21660,N,02625.92800,W,467.045,190.69,110824,,,A*7D
$GPGGA,132204.00,0801.21660,N,02625.92800,W,1,11,0.87,12968.5,M,7.6,M,,*7D
$GPRMC,132205.00,A,0801.08870,N,02625.95218,W,466.976,190.68,110824,,,A*75
$GPGGA,132205.00,0801.08870,N,02625.95218,W,1,11,0.87,12968.4,M,7.6,M,,*7D
$GPRMC,132206.00,A,0800.96079,N,02625.97638,W,467.202,190.69,110824,,,A*7D
$GPGGA,132206.00,0800.96079,N,02625.97638,W,1,11,0.87,12968.1,M,7.6,M,,*78
$GPRMC,132207.00,A,0800.83285,N,02626.00061,W,467.324,190.69,110824,,,A*7B
$GPGGA,132207.00,0800.83285,N,02626.00061,W,1,11,0.87,12967.6,M,7.6,M,,*73
$GPRMC,132208.00,A,0800.70491,N,02626.02486,W,467.187,190.69,110824,,,A*7F
$GPGGA,132208.00,0800.70491,N,02626.02486,W,1,11,0.87,12967.3,M,7.6,M,,*79
$GPRMC,132209.00,A,0800.57700,N,02626.04907,W,467.151,190.66,110824,,,A*76
$GPGGA,132209.00,0800.57700,N,02626.04907,W,1,11,0.87,12967.0,M,7.6,M,,*77
$GPRMC,132210.00,A,0800.44908,N,02626.07327,W,467.141,190.68,110824,,,A*7E
$GPGGA,132210.00,0800.44908,N,02626.07327,W,1,11,0.87,12966.5,M,7.6,M,,*74
$GPRMC,132211.00,A,0800.32117,N,02626.09748,W,467.161,190.67,110824,,,A*76
$GPGGA,132211.00,0800.32117,N,02626.09748,W,1,11,0.87,12966.1,M,7.6,M,,*75
$GPRMC,132212.00,A,0800.19325,N,02626.12167,W,467.103,190.65,110824,,,A*78
$GPGGA,132212.00,0800.19325,N,02626.12167,W,1,11,0.87,12965.8,M,7.6,M,,*77
$GPRMC,132213.00,A,0800.06532,N,02626.14582,W,467.119,190.64,110824,,,A*74
$GPGGA,132213.00,0800.06532,N,02626.14582,W,1,11,0.87,12965.4,M,7.6,M,,*7D
$GPRMC,132214.00,A,0759.93739,N,02626.16996,W,467.115,190.64,110824,,,A*72
$GPGGA,132214.00,0759.93739,N,02626.16996,W,1,11,0.87,12965.0,M,7.6,M,,*73
$GPRMC,132215.00,A,0759.80947,N,02626.19412,W,467.021,190.65,110824,,,A*7F
$GPGGA,132215.00,0759.80947,N,02626.19412,W,1,11,0.87,12964.6,M,7.6,M,,*7E
$GPRMC,132216.00,A,0759.68155,N,02626.21827,W,467.049,190.63,110824,,,A*78
$GPGGA,132216.00,0759.68155,N,02626.21827,W,1,11,0.87,12964.4,M,7.6,M,,*73
$GPRMC,132217.00,A,0759.55363,N,02626.24240,W,467.075,190.64,110824,,,A*76
$GPGGA,132217.00,0759.55363,N,02626.24240,W,1,11,0.87,12964.2,M,7.6,M,,*73
$GPRMC,132218.00,A,0759.42571,N,02626.26656,W,467.072,190.66,110824,,,A*7E
$GPGGA,132218.00,0759.42571,N,02626.26656,W,1,11,0.87,12964.3,M,7.6,M,,*7F
$GPRMC,132219.00,A,0759.29780,N,02626.29067,W,467.005,190.63,110824,,,A*70
$GPGGA,132219.00,0759.29780,N,02626.29067,W,1,11,0.87,12964.2,M,7.6,M,,*75
$GPRMC,132220.00,A,0759.16990,N,02626.31478,W,466.983,190.65,110824,,,A*7A
$GPGGA,132220.00,0759.16990,N,02626.31478,W,1,11,0.87,12964.1,M,7.6,M,,*7C
$GPRMC,132221.00,A,0759.04203,N,02626.33895,W,467.012,190.67,110824,,,A*76
$GPGGA,132221.00,0759.04203,N,02626.33895,W,1,11,0.87,12964.1,M,7.6,M,,*72
$GPRMC,132222.00,A,0758.91416,N,02626.36316,W,466.919,190.68,110824,,,A*73
$GPGGA,132222.00,0758.91416,N,02626.36316,W,1,11,0.87,12964.2,M,7.6,M,,*78
$GPRMC,132223.00,A,0758.78632,N,02626.38736,W,466.758,190.68,110824,,,A*72
$GPGGA,132223.00,0758.78632,N,02626.38736,W,1,11,0.87,12964.2,M,7.6,M,,*72
$GPRMC,132224.00,A,0758.65853,N,02626.41158,W,466.712,190.69,110824,,,A*7F
$GPGGA,132224.00,0758.65853,N,02626.41158,W,1,11,0.87,12964.3,M,7.6,M,,*71
$GPRMC,132225.00,A,0758.53073,N,02626.43583,W,466.691,190.70,110824,,,A*73
$GPGGA,132225.00,0758.53073,N,02626.43583,W,1,11,0.87,12964.5,M,7.6,M,,*79
$GPRMC,132226.00,A,0758.40295,N,02626.46007,W,466.616,190.70,110824,,,A*7B
$GPGGA,132226.00,0758.40295,N,02626.46007,W,1,11,0.87,12964.7,M,7.6,M,,*7C
$GPRMC,132227.00,A,0758.27518,N,02626.48429,W,466.549,190.69,110824,,,A*7E
$GPGGA,132227.00,0758.27518,N,02626.48429,W,1,11,0.87,12965.0,M,7.6,M,,*7E
$GPRMC,132228.00,A,0758.14742,N,02626.50849,W,466.491,190.69,110824,,,A*7B
$GPGGA,132228.00,0758.14742,N,02626.50849,W,1,11,0.87,12965.2,M,7.6,M,,*7D
$GPRMC,132229.00,A,0758.01970,N,02626.53269,W,466.356,190.69,110824,,,A*76
$GPGGA,132229.00,0758.01970,N,02626.53269,W,1,11,0.87,12965.4,M,7.6,M,,*7A
$GPRMC,132230.00,A,0757.89198,N,02626.55686,W,466.302,190.67,110824,,,A*73
$GPGGA,132230.00,0757.89198,N,02626.55686,W,1,11,0.87,12965.6,M,7.6,M,,*72
$GPRMC,132231.00,A,0757.76430,N,02626.58101,W,466.192,190.68,110824,,,A*74
$GPGGA,132231.00,0757.76430,N,02626.58101,W,1,11,0.87,12965.6,M,7.6,M,,*71
$GPRMC,132232.00,A,0757.63664,N,02626.60515,W,466.164,190.68,110824,,,A*73
$GPGGA,132232.00,0757.63664,N,02626.60515,W,1,11,0.87,12965.6,M,7.6,M,,*7F
$GPRMC,132233.00,A,0757.50899,N,02626.62930,W,466.282,190.71,110824,,,A*74
$GPGGA,132233.00,0757.50899,N,02626.62930,W,1,11,0.87,12965.6,M,7.6,M,,*7B
$GPRMC,132234.00,A,0757.38134,N,02626.65349,W,466.057,190.71,110824,,,A*7A
$GPGGA,132234.00,0757.38134,N,02626.65349,W,1,11,0.87,12965.5,M,7.6,M,,*7C
$GPRMC,132235.00,A,0757.25373,N,02626.67768,W,466.004,190.71,110824,,,A*75
$GPGGA,132235.00,0757.25373,N,02626.67768,W,1,11,0.87,12965.5,M,7.6,M,,*75
$GPRMC,132236.00,A,0757.12614,N,02626.70186,W,465.888,190.69,110824,,,A*70
$GPGGA,132236.00,0757.12614,N,02626.70186,W,1,11,0.87,12965.5,M,7.6,M,,*76
$GPRMC,132237.00,A,0756.99855,N,02626.72603,W,465.900,190.70,110824,,,A*79
$GPGGA,132237.00,0756.99855,N,02626.72603,W,1,11,0.87,12965.4,M,7.6,M,,*77
$GPRMC,132238.00,A,0756.87097,N,02626.75016,W,465.778,190.68,110824,,,A*72
$GPGGA,132238.00,0756.87097,N,02626.75016,W,1,11,0.87,12965.2,M,7.6,M,,*72
$GPRMC,132239.00,A,0756.74340,N,02626.77427,W,465.806,190.70,110824,,,A*7D
$GPGGA,132239.00,0756.74340,N,02626.77427,W,1,11,0.87,12965.0,M,7.6,M,,*70
$GPRMC,132240.00,A,0756.61583,N,02626.79837,W,465.778,190.70,110824,,,A*7B
$GPGGA,132240.00,0756.61583,N,02626.79837,W,1,11,0.87,12964.8,M,7.5,M,,*7A
$GPRMC,132241.00,A,0756.48830,N,02626.82245,W,465.536,190.66,110824,,,A*70
$GPGGA,132241.00,0756.48830,N,02626.82245,W,1,11,0.87,12964.9,M,7.5,M,,*7F
$GPRMC,132242.00,A,0756.36078,N,02626.84647,W,465.518,190.65,110824,,,A*71
$GPGGA,132242.00,0756.36078,N,02626.84647,W,1,11,0.87,12965.0,M,7.5,M,,*79
$GPRMC,132243.00,A,0756.23329,N,02626.87051,W,465.488,190.67,110824,,,A*7B
$GPGGA,132243.00,0756.23329,N,02626.87051,W,1,11,0.87,12965.2,M,7.5,M,,*7B
$GPRMC,132244.00,A,0756.10580,N,02626.89454,W,465.353,190.66,110824,,,A*76
$GPGGA,132244.00,0756.10580,N,02626.89454,W,1,11,0.87,12965.4,M,7.5,M,,*70
$GPRMC,132245.00,A,0755.97834,N,02626.91852,W,465.255,190.63,110824,,,A*78
$GPGGA,132245.00,0755.97834,N,02626.91852,W,1,11,0.87,12965.5,M,7.5,M,,*7D
$GPRMC,132246.00,A,0755.85090,N,02626.94247,W,465.219,190.65,110824,,,A*7B
$GPGGA,132246.00,0755.85090,N,02626.94247,W,1,11,0.87,12965.5,M,7.5,M,,*70
$GPRMC,132247.00,A,0755.72347,N,02626.96648,W,465.115,190.65,110824,,,A*7D
$GPGGA,132247.00,0755.72347,N,02626.96648,W,1,11,0.87,12965.8,M,7.5,M,,*74
$GPRMC,132248.00,A,0755.59609,N,02626.99050,W,465.025,190.68,110824,,,A*7B
$GPGGA,132248.00,0755.59609,N,02626.99050,W,1,11,0.87,12965.8,M,7.5,M,,*7D
$GPRMC,132249.00,A,0755.46873,N,02627.01459,W,465.030,190.69,110824,,,A*7F
$GPGGA,132249.00,0755.46873,N,02627.01459,W,1,11,0.87,12965.9,M,7.5,M,,*7D
$GPRMC,132250.00,A,0755.34139,N,02627.03868,W,464.865,190.69,110824,,,A*70
$GPGGA,132250.00,0755.34139,N,02627.03868,W,1,11,0.87,12966.1,M,7.5,M,,*70
$GPRMC,132251.00,A,0755.21407,N,02627.06278,W,465.006,190.72,110824,,,A*75
$GPGGA,132251.00,0755.21407,N,02627.06278,W,1,11,0.87,12966.0,M,7.5,M,,*72
$GPRMC,132252.00,A,0755.08677,N,02627.08687,W,464.878,190.68,110824,,,A*79
$GPGGA,132252.00,0755.08677,N,02627.08687,W,1,11,0.87,12966.0,M,7.5,M,,*75
$GPRMC,132253.00,A,0754.95946,N,02627.11094,W,464.940,190.70,110824,,,A*7F
$GPGGA,132253.00,0754.95946,N,02627.11094,W,1,11,0.87,12965.9,M,7.5,M,,*7A
$GPRMC,132254.00,A,0754.83217,N,02627.13502,W,464.773,190.68,110824,,,A*7F
$GPGGA,132254.00,0754.83217,N,02627.13502,W,1,11,0.87,12966.1,M,7.5,M,,*76
$GPRMC,132255.00,A,0754.70493,N,02627.15904,W,464.715,190.68,110824,,,A*74
$GPGGA,132255.00,0754.70493,N,02627.15904,W,1,11,0.87,12965.9,M,7.5,M,,*76
$GPRMC,132256.00,A,0754.57770,N,02627.18309,W,464.526,190.67,110824,,,A*7B
$GPGGA,132256.00,0754.57770,N,02627.18309,W,1,11,0.87,12966.0,M,7.5,M,,*7E
$GPRMC,132257.00,A,0754.45048,N,02627.20714,W,464.596,190.68,110824,,,A*72
$GPGGA,132257.00,0754.45048,N,02627.20714,W,1,11,0.87,12966.0,M,7.5,M,,*73
$GPRMC,132258.00,A,0754.32328,N,02627.23118,W,464.507,190.69,110824,,,A*78
$GPGGA,132258.00,0754.32328,N,02627.23118,W,1,11,0.87,12966.0,M,7.5,M,,*70
$GPRMC,132259.00,A,0754.19610,N,02627.25522,W,464.495,190.69,110824,,,A*7F
$GPGGA,132259.00,0754.19610,N,02627.25522,W,1,11,0.87,12966.2,M,7.5,M,,*7F
$GPRMC,132300.00,A,0754.06893,N,02627.27926,W,464.435,190.69,110824,,,A*79
$GPGGA,132300.00,0754.06893,N,02627.27926,W,1,11,0.87,12966.4,M,7.5,M,,*75
$GPRMC,132301.00,A,0753.94179,N,02627.30331,W,464.292,190.70,110824,,,A*70
$GPGGA,132301.00,0753.94179,N,02627.30331,W,1,11,0.87,12966.6,M,7.5,M,,*7D
$GPRMC,132302.00,A,0753.81466,N,02627.32734,W,464.283,190.68,110824,,,A*76
$GPGGA,132302.00,0753.81466,N,02627.32734,W,1,11,0.87,12966.8,M,7.5,M,,*7C
$GPRMC,132303.00,A,0753.68753,N,02627.35139,W,464.229,190.70,110824,,,A*70
$GPGGA,132303.00,0753.68753,N,02627.35139,W,1,11,0.87,12967.1,M,7.5,M,,*7B
$GPRMC,132304.00,A,0753.56040,N,02627.37546,W,464.240,190.67,110824,,,A*78
$GPGGA,132304.00,0753.56040,N,02627.37546,W,1,11,0.87,12967.0,M,7.5,M,,*7B
$GPRMC,132305.00,A,0753.43330,N,02627.39949,W,464.094,190.68,110824,,,A*70
$GPGGA,132305.00,0753.43330,N,02627.39949,W,1,11,0.87,12966.9,M,7.5,M,,*7F
$GPRMC,132306.00,A,0753.30620,N,02627.42355,W,464.177,190.69,110824,,,A*75
$GPGGA,132306.00,0753.30620,N,02627.42355,W,1,11,0.87,12966.6,M,7.5,M,,*78
$GPRMC,132307.00,A,0753.17907,N,02627.44763,W,464.226,190.70,110824,,,A*73
$GPGGA,132307.00,0753.17907,N,02627.44763,W,1,11,0.87,12965.9,M,7.5,M,,*7D
$GPRMC,132308.00,A,0753.05195,N,02627.47168,W,464.255,190.68,110824,,,A*7F
$GPGGA,132308.00,0753.05195,N,02627.47168,W,1,11,0.87,12965.2,M,7.5,M,,*77
$GPRMC,132309.00,A,0752.92479,N,02627.49570,W,464.304,190.67,110824,,,A*7F
$GPGGA,132309.00,0752.92479,N,02627.49570,W,1,11,0.87,12964.4,M,7.5,M,,*7A
$GPRMC,132310.00,A,0752.79763,N,02627.51971,W,464.298,190.66,110824,,,A*7B
$GPGGA,132310.00,0752.79763,N,02627.51971,W,1,11,0.87,12963.6,M,7.5,M,,*7E
$GPRMC,132311.00,A,0752.67049,N,02627.54367,W,464.199,190.64,110824,,,A*72
$GPGGA,132311.00,0752.67049,N,02627.54367,W,1,11,0.87,12962.6,M,7.5,M,,*76
$GPRMC,132312.00,A,0752.54336,N,02627.56765,W,464.220,190.63,110824,,,A*78
$GPGGA,132312.00,0752.54336,N,02627.56765,W,1,11,0.87,12961.8,M,7.5,M,,*77
$GPRMC,132313.00,A,0752.41625,N,02627.59164,W,464.237,190.67,110824,,,A*70
$GPGGA,132313.00,0752.41625,N,02627.59164,W,1,11,0.87,12960.9,M,7.5,M,,*7D
$GPRMC,132314.00,A,0752.28913,N,02627.61565,W,464.200,190.66,110824,,,A*79
$GPGGA,132314.00,0752.28913,N,02627.61565,W,1,11,0.87,12960.3,M,7.5,M,,*7B
$GPRMC,132315.00,A,0752.16201,N,02627.63964,W,464.274,190.65,110824,,,A*72
$GPGGA,132315.00,0752.16201,N,02627.63964,W,1,11,0.87,12959.9,M,7.5,M,,*70
$GPRMC,132316.00,A,0752.03490,N,02627.66367,W,464.213,190.69,110824,,,A*7A
$GPGGA,132316.00,0752.03490,N,02627.66367,W,1,11,0.87,12959.6,M,7.5,M,,*7A
$GPRMC,132317.00,A,0751.90780,N,02627.68773,W,464.242,190.69,110824,,,A*7B
$GPGGA,132317.00,0751.90780,N,02627.68773,W,1,11,0.87,12959.5,M,7.5,M,,*7C
$GPRMC,132318.00,A,0751.78070,N,02627.71177,W,464.220,190.68,110824,,,A*75
$GPGGA,132318.00,0751.78070,N,02627.71177,W,1,11,0.87,12959.9,M,7.5,M,,*7B
$GPRMC,132319.00,A,0751.65364,N,02627.73577,W,463.984,190.67,110824,,,A*75
$GPGGA,132319.00,0751.65364,N,02627.73577,W,1,11,0.87,12960.6,M,7.5,M,,*73
$GPRMC,132320.00,A,0751.52661,N,02627.75975,W,463.868,190.67,110824,,,A*70
$GPGGA,132320.00,0751.52661,N,02627.75975,W,1,11,0.87,12961.6,M,7.5,M,,*74
$GPRMC,132321.00,A,0751.39959,N,02627.78374,W,463.773,190.66,110824,,,A*7A
$GPGGA,132321.00,0751.39959,N,02627.78374,W,1,11,0.87,12962.6,M,7.5,M,,*79
$GPRMC,132322.00,A,0751.27260,N,02627.80774,W,463.644,190.67,110824,,,A*70
$GPGGA,132322.00,0751.27260,N,02627.80774,W,1,11,0.87,12963.7,M,7.5,M,,*77
$GPRMC,132323.00,A,0751.14563,N,02627.83177,W,463.569,190.68,110824,,,A*70
$GPGGA,132323.00,0751.14563,N,02627.83177,W,1,11,0.87,12964.6,M,7.5,M,,*72
$GPRMC,132324.00,A,0751.01866,N,02627.85579,W,463.643,190.67,110824,,,A*73
$GPGGA,132324.00,0751.01866,N,02627.85579,W,1,11,0.87,12965.4,M,7.5,M,,*76
$GPRMC,132325.00,A,0750.89167,N,02627.87977,W,463.617,190.66,110824,,,A*7B
$GPGGA,132325.00,0750.89167,N,02627.87977,W,1,11,0.87,12965.8,M,7.5,M,,*72
$GPRMC,132326.00,A,0750.76469,N,02627.90377,W,463.585,190.66,110824,,,A*77
$GPGGA,132326.00,0750.76469,N,02627.90377,W,1,11,0.87,12966.3,M,7.5,M,,*7E
$GPRMC,132327.00,A,0750.63772,N,02627.92779,W,463.694,190.67,110824,,,A*71
$GPGGA,132327.00,0750.63772,N,02627.92779,W,1,11,0.87,12966.3,M,7.5,M,,*7A
$GPRMC,132328.00,A,0750.51073,N,02627.95182,W,463.810,190.66,110824,,,A*7F
